City,Lat,Lng,Max Temp,Humidity,Cloudiness,Wind Speed,Country,Date
Fuerte Olimpo,-21.04,-57.87,60.12,81.0,88.0,6.11,PY,1593153418
Hobart,-42.88,147.33,50.0,61.0,90.0,8.05,AU,1593153008
Ushuaia,-54.8,-68.3,35.6,74.0,20.0,18.34,AR,1593153198
Hilo,19.73,-155.09,78.8,74.0,90.0,7.0,US,1593153005
Taitung City,22.76,121.14,91.4,63.0,75.0,5.82,TW,1593153392
Omboué,-1.57,9.26,73.27,80.0,28.0,5.86,GA,1593153418
Ahipara,-35.17,173.17,58.64,91.0,32.0,7.07,NZ,1593153204
Morro Bay,35.37,-120.85,59.0,87.0,16.0,0.56,US,1593153418
Avarua,-21.21,-159.78,69.8,77.0,33.0,3.36,CK,1593153199
Jamestown,42.1,-79.24,61.0,87.0,1.0,6.93,US,1593153204
Padang,-0.95,100.35,88.59,48.0,5.0,4.81,ID,1593153418
Chokurdakh,70.63,147.92,60.03,34.0,100.0,10.85,RU,1593153202
Busselton,-33.65,115.33,63.0,70.0,22.0,21.03,AU,1593152963
Lüderitz,-26.65,15.16,57.2,87.0,0.0,5.82,NA,1593153201
Arraial do Cabo,-22.97,-42.03,71.56,78.0,100.0,10.54,BR,1593153202
Rikitea,-23.12,-134.97,75.85,86.0,39.0,25.19,PF,1593153198
Gorontalo,0.54,123.06,79.41,86.0,100.0,1.14,ID,1593153215
Hervey Bay,-25.3,152.85,69.8,46.0,0.0,8.05,AU,1593153393
Hashtrūd,37.48,47.05,70.83,40.0,0.0,14.79,IR,1593153393
Suntar,62.14,117.63,77.76,46.0,92.0,3.6,RU,1593153201
Xining,36.62,101.77,73.35,29.0,100.0,12.82,CN,1593153419
Goundam,16.41,-3.67,91.83,29.0,4.0,9.01,ML,1593153393
Oranjemund,-28.55,16.43,57.94,82.0,0.0,6.93,NA,1593153419
Kaitangata,-46.28,169.85,46.0,71.0,100.0,6.49,NZ,1593153199
Tarquinia,42.25,11.76,70.0,77.0,0.0,5.82,IT,1593153393
Upernavik,72.79,-56.15,36.73,91.0,2.0,6.49,GL,1593153200
Yar-Sale,66.83,70.83,60.89,60.0,100.0,19.04,RU,1593153195
Morondava,-20.28,44.28,76.01,70.0,0.0,8.37,MG,1593153393
Torbay,47.67,-52.73,68.0,100.0,90.0,18.34,CA,1593153209
Sananduva,-27.95,-51.81,42.44,94.0,29.0,4.7,BR,1593153419
Mataura,-46.19,168.86,39.0,83.0,100.0,3.0,NZ,1593153175
Abhā,18.22,42.51,78.8,17.0,0.0,9.17,SA,1593153419
Fairview,40.81,-74.0,73.99,68.0,1.0,3.36,US,1593153357
Coromandel,-18.47,-47.2,59.85,82.0,98.0,2.35,BR,1593153393
Gewanē,10.17,40.65,95.72,22.0,0.0,9.93,ET,1593153393
Codrington,-38.27,141.97,50.9,69.0,100.0,2.28,AU,1593153199
Port Alfred,-33.59,26.89,61.0,94.0,34.0,1.01,ZA,1593153179
Chui,-33.7,-53.46,42.73,82.0,0.0,9.26,UY,1593153204
Bredasdorp,-34.53,20.04,53.6,87.0,97.0,6.93,ZA,1593153198
Salamanca,40.83,-6.0,62.01,80.0,0.0,5.1,ES,1593153419
Bluff,-46.6,168.33,39.0,83.0,100.0,3.0,NZ,1593153199
Vardø,70.37,31.11,51.8,93.0,75.0,19.46,NO,1593153419
Carnarvon,-24.87,113.63,75.2,50.0,2.0,9.17,AU,1593153180
Dix Hills,40.8,-73.34,72.0,73.0,1.0,4.7,US,1593153419
Lagoa,39.05,-27.98,65.86,91.0,34.0,13.56,PT,1593153200
Kavaratti,10.57,72.64,84.2,74.0,90.0,13.87,IN,1593153219
Deputatsky,69.3,139.9,72.77,44.0,78.0,7.96,RU,1593153420
Mar del Plata,-38.0,-57.56,43.0,70.0,40.0,10.29,AR,1593152916
Bowen,-20.02,148.23,71.01,49.0,0.0,9.17,AU,1593153420
Constitución,-35.33,-72.42,48.29,62.0,100.0,4.65,CL,1593153203
Onalaska,43.88,-91.24,69.8,83.0,1.0,5.82,US,1593153150
Clyde River,70.47,-68.59,33.8,66.0,1.0,4.7,CA,1593153218
Lebu,-37.62,-73.65,47.89,84.0,100.0,13.44,CL,1593153204
Atasū,48.68,71.64,86.16,14.0,100.0,14.16,KZ,1593153420
Puerto Ayora,-0.74,-90.35,70.0,94.0,63.0,1.01,EC,1593153066
Coyhaique,-45.58,-72.07,30.2,86.0,75.0,2.24,CL,1593153207
Pudozh,61.81,36.53,71.11,64.0,10.0,9.01,RU,1593153420
Athabasca,54.72,-113.29,55.33,68.0,99.0,6.8,CA,1593153420
Hermanus,-34.42,19.23,52.0,93.0,80.0,15.82,ZA,1593153188
Saint George,37.1,-113.58,89.6,18.0,1.0,16.11,US,1593153010
Poum,-20.23,164.02,71.46,66.0,5.0,15.93,NC,1593153221
Aklavik,68.22,-135.01,57.2,47.0,75.0,9.17,CA,1593153185
Santa Cruz,30.42,-9.6,64.4,88.0,3.0,5.82,MA,1593153420
Punta Arenas,-53.15,-70.92,24.8,85.0,70.0,5.82,CL,1593153201
Ust'-Ishim,57.69,71.17,57.07,83.0,92.0,4.99,RU,1593153420
Albany,42.6,-73.97,64.0,71.0,19.0,2.91,US,1593152983
Sitka,57.05,-135.33,53.6,71.0,90.0,11.41,US,1593153202
Saskylakh,71.92,114.08,88.45,21.0,35.0,8.25,RU,1593153199
Gubkinskiy,64.43,76.5,61.2,60.0,100.0,20.92,RU,1593153421
Nur-Sultan,51.18,71.45,75.2,41.0,75.0,8.95,KZ,1593153186
Qaanaaq,77.48,-69.36,34.68,87.0,0.0,1.97,GL,1593153175
Kuytun,54.34,101.5,82.62,29.0,0.0,4.7,RU,1593153189
Diébougou,10.97,-3.25,77.31,79.0,0.0,7.74,BF,1593153421
Bethel,41.37,-73.41,64.99,87.0,1.0,2.1,US,1593153177
Neiafu,-18.65,-173.98,77.0,88.0,75.0,17.96,TO,1593153421
Makakilo City,21.35,-158.09,80.6,65.0,1.0,8.05,US,1593153250
Barrow,71.29,-156.79,37.4,86.0,90.0,8.05,US,1593153001
Narsaq,60.92,-46.05,44.6,75.0,69.0,3.36,GL,1593153187
Santa Cruz de la Sierra,-17.8,-63.17,57.2,93.0,90.0,16.11,BO,1593153003
Bluffton,32.24,-80.86,79.0,78.0,75.0,5.82,US,1593153396
Saint Paul Harbor,57.79,-152.41,50.0,87.0,90.0,8.05,US,1593153205
Zabul Province,32.25,67.25,89.98,11.0,0.0,12.8,AF,1593153421
East London,-33.02,27.91,66.2,32.0,21.0,8.05,ZA,1593153214
Laas,46.62,10.7,53.6,93.0,40.0,2.24,IT,1593153203
Novomykolayivka,47.98,35.91,73.4,43.0,0.0,6.71,UA,1593153421
Faanui,-16.48,-151.75,78.22,74.0,20.0,13.78,PF,1593153206
Samarai,-10.62,150.67,78.82,82.0,65.0,18.1,PG,1593153396
Tuktoyaktuk,69.45,-133.04,41.0,80.0,75.0,12.75,CA,1593153201
Provideniya,64.38,-173.3,44.6,65.0,75.0,15.66,RU,1593153203
Madang,-5.22,145.8,83.3,73.0,59.0,5.84,PG,1593153422
Iralaya,15.0,-83.23,80.28,82.0,14.0,10.71,HN,1593153422
Luján,-34.57,-59.1,39.99,72.0,79.0,1.01,AR,1593153422
Atuona,-9.8,-139.03,79.86,78.0,36.0,17.47,PF,1593153179
Sola,-13.88,167.55,82.4,83.0,75.0,16.04,VU,1593153422
Bukama,-9.2,25.85,75.99,35.0,10.0,4.79,CD,1593153422
Hithadhoo,-0.6,73.08,84.85,70.0,79.0,8.43,MV,1593153203
Airai,-8.93,125.41,69.48,68.0,75.0,3.4,TL,1593153180
Estelle,29.85,-90.11,78.8,83.0,90.0,4.7,US,1593153422
Yuzhno-Kurilsk,44.03,145.86,52.84,88.0,100.0,8.32,RU,1593153422
Severo-Kuril'sk,50.68,156.12,51.39,70.0,100.0,11.63,RU,1593153199
Khatanga,71.97,102.5,79.32,38.0,0.0,13.4,RU,1593153199
Thompson,55.74,-97.86,59.0,100.0,75.0,2.24,CA,1593153202
Butaritari,3.07,172.79,83.64,69.0,0.0,11.01,KI,1593153208
Saint-Ambroise,48.55,-71.33,60.8,77.0,90.0,5.82,CA,1593153422
Port Hawkesbury,45.62,-61.35,66.2,63.0,1.0,8.05,CA,1593153422
Māngrol,21.12,70.12,88.9,65.0,54.0,10.25,IN,1593153192
Bassano,50.78,-112.47,62.01,73.0,86.0,3.0,CA,1593153422
Vila,42.03,-8.16,62.01,93.0,75.0,1.12,PT,1593153422
Saint-Philippe,-21.36,55.77,75.2,73.0,90.0,24.16,RE,1593153203
Vaini,-21.2,-175.2,75.2,83.0,75.0,5.82,TO,1593153200
New Norfolk,-42.78,147.06,48.0,79.0,32.0,1.99,AU,1593153178
Ust'-Tarka,55.57,75.7,55.18,95.0,100.0,8.46,RU,1593153397
Simpang,-1.27,104.08,92.39,47.0,17.0,4.43,ID,1593153423
Bathsheba,13.22,-59.52,82.4,78.0,40.0,21.92,BB,1593153397
Garelochhead,56.08,-4.83,59.0,93.0,100.0,8.05,GB,1593153397
Toba,34.48,136.85,84.2,79.0,40.0,5.82,JP,1593153397
Karwar,14.8,74.13,84.22,74.0,100.0,7.99,IN,1593153398
Unguía,8.04,-77.09,75.09,91.0,34.0,1.25,CO,1593153398
Nikolskoye,59.7,30.79,77.0,53.0,14.0,6.71,RU,1593153212
Atar,20.52,-13.05,89.83,16.0,0.0,11.43,MR,1593153398
Buraidah,26.33,43.98,93.2,17.0,0.0,3.36,SA,1593153261
Launceston,-41.45,147.17,50.0,61.0,32.0,6.93,AU,1593153223
Norman Wells,65.28,-126.83,55.4,87.0,75.0,3.36,CA,1593153208
Nanortalik,60.14,-45.24,40.66,90.0,78.0,12.44,GL,1593153205
Praia da Vitória,38.73,-27.07,64.4,100.0,75.0,13.09,PT,1593153214
Grand-Santi,4.25,-54.38,71.71,97.0,29.0,1.45,GF,1593153423
Cherskiy,68.75,161.3,40.1,69.0,1.0,23.09,RU,1593153213
Luganville,-15.53,167.17,78.8,94.0,75.0,7.85,VU,1593153203
Iaciara,-14.1,-46.63,62.56,54.0,37.0,2.3,BR,1593153423
Altay,47.87,88.12,78.01,21.0,6.0,5.66,CN,1593153423
Ullapool,57.9,-5.16,63.93,73.0,99.0,3.51,GB,1593153398
George Town,5.41,100.34,86.0,66.0,20.0,11.41,MY,1593153103
Cape Town,-33.93,18.42,57.0,93.0,75.0,4.7,ZA,1593153099
Erenhot,43.65,111.98,79.9,27.0,76.0,12.1,CN,1593153218
Coahuayana Viejo,18.73,-103.68,74.39,88.0,100.0,7.11,MX,1593153423
Tarata,-17.62,-66.02,50.0,57.0,0.0,2.73,BO,1593153424
Fortuna,40.6,-124.16,55.99,100.0,90.0,1.63,US,1593153177
Esim,4.87,-2.24,76.86,86.0,80.0,9.13,GH,1593153187
Rosita,13.93,-84.4,72.68,96.0,15.0,2.08,NI,1593153424
Bambous Virieux,-20.34,57.76,75.99,73.0,40.0,17.22,MU,1593153204
Castro,-24.79,-50.01,54.93,98.0,100.0,3.96,BR,1593153205
Gombong,-7.61,109.51,71.01,58.0,100.0,9.15,ID,1593153424
Kalmunai,7.42,81.82,89.87,53.0,100.0,4.56,LK,1593153204
Abu Samrah,35.3,37.18,85.48,30.0,0.0,10.11,SY,1593153213
Acapulco de Juárez,16.86,-99.89,79.0,75.0,60.0,6.44,MX,1593153386
Kumul,42.8,93.45,83.52,25.0,100.0,23.73,CN,1593153212
Wau,7.7,28.0,81.46,69.0,94.0,2.46,SS,1593153399
Letterkenny,54.95,-7.73,62.58,92.0,66.0,2.39,IE,1593153424
Jarosław,50.02,22.68,72.0,82.0,79.0,9.17,PL,1593153424
Nara,34.69,135.8,91.0,66.0,75.0,19.46,JP,1593153424
Sisimiut,66.94,-53.67,39.85,84.0,100.0,5.48,GL,1593153424
Salinópolis,-0.61,-47.36,78.17,84.0,23.0,8.08,BR,1593153208
Renukoot,24.2,83.03,93.33,48.0,99.0,12.68,IN,1593153399
Sault Ste. Marie,46.52,-84.33,55.4,87.0,1.0,2.75,CA,1593153194
Sungai Raya,0.7,108.9,81.09,85.0,97.0,2.3,ID,1593153424
Tiksi,71.69,128.87,49.37,77.0,25.0,4.81,RU,1593153211
Siuri,23.92,87.53,96.28,49.0,97.0,9.28,IN,1593153424
Nemuro,43.32,145.57,53.6,100.0,75.0,8.05,JP,1593153192
Samoylovka,51.18,43.71,69.01,60.0,30.0,3.0,RU,1593153425
São Filipe,14.9,-24.5,72.64,83.0,2.0,10.6,CV,1593153177
Mokolo,10.74,13.8,80.13,51.0,93.0,3.67,CM,1593153400
Andenes,69.31,16.12,50.0,87.0,75.0,21.92,NO,1593153292
Vidim,56.41,103.11,78.58,43.0,55.0,5.28,RU,1593153425
Kwinana,-32.25,115.77,71.01,52.0,75.0,17.22,AU,1593153425
Ribeira Grande,38.52,-28.7,66.2,93.0,75.0,8.05,PT,1593153208
Karlovac,45.49,15.55,64.0,93.0,12.0,0.45,HR,1593153425
Bengkulu,-3.8,102.27,84.74,64.0,0.0,6.22,ID,1593153186
Simao,22.79,100.97,75.65,81.0,96.0,5.7,CN,1593153425
Migori,-1.06,34.47,71.22,67.0,0.0,6.64,KE,1593153400
San Luis Obispo,35.28,-120.66,59.0,87.0,90.0,0.2,US,1593153151
Noumea,-22.28,166.46,72.0,56.0,0.0,6.93,NC,1593153415
Vila Franca do Campo,37.72,-25.43,66.2,93.0,75.0,9.17,PT,1593153425
Kimbe,-5.55,150.14,85.12,67.0,2.0,6.44,PG,1593153425
Klaksvík,62.23,-6.59,51.8,87.0,100.0,3.36,FO,1593153204
Pokhara,28.23,83.98,81.36,73.0,64.0,3.91,NP,1593153425
Negotin,44.23,22.53,73.72,71.0,85.0,8.68,RS,1593153425
Tilichiki,60.47,166.1,61.38,60.0,50.0,9.17,RU,1593153184
Nyurba,63.28,118.33,80.11,40.0,46.0,3.22,RU,1593153426
Nurobod,40.91,69.8,95.0,17.0,98.0,11.41,UZ,1593153400
Englehart,47.82,-79.87,57.2,87.0,90.0,8.05,CA,1593153426
Ilulissat,69.22,-51.1,39.2,86.0,96.0,1.12,GL,1593153211
Srivaikuntam,8.62,77.93,93.2,56.0,75.0,4.7,IN,1593153401
Isangel,-19.55,169.27,77.0,83.0,75.0,5.82,VU,1593153207
Nueve de Julio,-35.44,-60.88,39.0,78.0,47.0,6.76,AR,1593153426
Pangnirtung,66.15,-65.71,46.9,64.0,87.0,1.45,CA,1593153426
Thunder Bay,48.4,-89.32,55.4,87.0,5.0,2.24,CA,1593153289
Port Elizabeth,-33.92,25.57,53.6,100.0,0.0,1.12,ZA,1593153200
Bairiki Village,1.33,172.98,84.2,70.0,20.0,4.7,KI,1593153219
Kaohsiung City,22.62,120.31,89.6,66.0,75.0,8.05,TW,1593153426
Usinsk,65.99,57.53,45.14,80.0,100.0,13.89,RU,1593153426
Saldanha,-33.01,17.94,53.6,87.0,0.0,4.7,ZA,1593153177
Geraldton,-28.77,114.6,71.6,60.0,83.0,12.75,AU,1593153049
Coruripe,-10.13,-36.18,73.15,83.0,0.0,8.39,BR,1593153426
Pevek,69.7,170.31,31.55,95.0,63.0,17.54,RU,1593153208
Leningradskiy,69.38,178.42,31.93,98.0,100.0,14.09,RU,1593153218
Cilegon,-6.02,106.05,89.6,59.0,20.0,11.41,ID,1593153427
Itapira,-22.44,-46.82,61.92,90.0,100.0,1.74,BR,1593153427
Nārāyanpet,16.73,77.5,91.17,47.0,100.0,5.01,IN,1593153427
Kapaa,22.08,-159.32,78.8,83.0,40.0,13.87,US,1593153199
The Valley,18.22,-63.06,82.4,83.0,40.0,16.11,AI,1593153390
Esperance,-33.87,121.9,69.8,35.0,7.0,17.22,AU,1593153214
Limbang,4.75,115.0,87.8,58.0,75.0,8.05,MY,1593153427
Micheweni,-4.97,39.83,78.55,80.0,24.0,12.28,TZ,1593153427
Te Anau,-45.42,167.72,41.22,74.0,100.0,1.01,NZ,1593153181
Campbell River,50.02,-125.24,66.2,59.0,75.0,4.7,CA,1593153427
Taoudenni,22.68,-3.98,93.97,10.0,0.0,5.61,ML,1593153427
Mahébourg,-20.41,57.7,75.2,73.0,40.0,17.22,MU,1593153200
Severnyy,50.68,36.55,75.2,53.0,0.0,8.95,RU,1593153402
Katsuura,35.13,140.3,84.0,80.0,18.0,5.99,JP,1593153211
Saint Anthony,45.02,-93.22,75.0,53.0,40.0,3.36,US,1593153427
Havre-St-Pierre,50.23,-63.6,55.4,93.0,1.0,2.24,CA,1593153427
Maceió,-9.67,-35.74,71.6,94.0,75.0,5.82,BR,1593153427
Kadayanallur,9.08,77.35,78.42,70.0,100.0,11.77,IN,1593153428
Nouadhibou,20.93,-17.03,69.8,77.0,0.0,20.8,MR,1593153209
Marzuq,14.4,46.47,92.21,14.0,64.0,4.38,YE,1593153428
Tautira,-17.73,-149.15,78.8,74.0,20.0,13.87,PF,1593153201
Hamina,60.57,27.2,77.0,41.0,0.0,8.05,FI,1593153428
Coquimbo,-29.95,-71.34,50.0,87.0,100.0,3.36,CL,1593153402
Lagos,6.58,3.75,77.0,94.0,20.0,2.24,NG,1593153428
Dunedin,-45.87,170.5,48.99,87.0,100.0,1.01,NZ,1593153218
Mount Gambier,-37.83,140.77,55.4,62.0,100.0,5.82,AU,1593153209
Mabay,6.06,124.47,82.4,74.0,90.0,2.24,PH,1593153428
Knysna,-34.04,23.05,55.4,87.0,90.0,12.75,ZA,1593153402
Caravelas,-17.71,-39.25,66.36,91.0,0.0,2.59,BR,1593153182
Kuching,1.55,110.33,73.4,100.0,40.0,11.41,MY,1593153292
Yerofey Pavlovich,53.97,121.97,68.56,56.0,100.0,2.95,RU,1593153403
Lata,40.16,-8.33,64.0,86.0,100.0,5.03,PT,1593153428
Malanje,-9.54,16.34,61.65,32.0,0.0,7.11,AO,1593153428
Gigmoto,13.78,124.39,86.61,70.0,100.0,6.26,PH,1593153428
Ayna,-12.65,-73.92,58.69,66.0,39.0,1.03,PE,1593153428
Burayevo,55.84,55.41,54.86,78.0,100.0,11.99,RU,1593153429
Port Lincoln,-34.73,135.87,58.33,67.0,58.0,4.29,AU,1593153429
Kamenka,51.32,42.77,68.0,60.0,23.0,4.0,RU,1593153182
Sungai Penuh,-2.08,101.38,79.74,59.0,12.0,4.79,ID,1593153403
Dikson,73.51,80.55,37.27,91.0,94.0,10.31,RU,1593153215
Shihezi,44.3,86.03,91.42,13.0,0.0,7.27,CN,1593153429
Kavieng,-2.57,150.8,85.21,72.0,6.0,13.94,PG,1593153191
Hasaki,35.73,140.83,91.0,83.0,40.0,2.24,JP,1593153173
Cap Malheureux,-19.98,57.61,75.99,68.0,0.0,13.0,MU,1593153429
Bataiporã,-22.3,-53.27,59.05,95.0,100.0,8.12,BR,1593153403
Shingū,33.73,135.98,77.0,100.0,75.0,9.17,JP,1593153429
Manokwari,-0.87,134.08,84.38,70.0,76.0,5.86,ID,1593153429
Bonavista,48.65,-53.11,58.84,96.0,100.0,11.48,CA,1593153429
Fort-Shevchenko,44.51,50.26,70.02,55.0,1.0,24.0,KZ,1593153429
Souillac,-20.52,57.52,75.2,73.0,40.0,17.22,MU,1593153174
Salamiyah,35.01,37.05,85.71,29.0,0.0,8.5,SY,1593153429
Manzhouli,49.6,117.43,72.73,41.0,96.0,4.32,CN,1593153429
Qui Nhon,13.77,109.23,87.75,67.0,100.0,17.34,VN,1593153429
Yazman,29.12,71.74,109.53,23.0,0.0,18.9,PK,1593153429
Ostrovnoy,68.05,39.51,48.69,85.0,100.0,9.75,RU,1593153202
Pleasant Grove,40.36,-111.74,69.8,52.0,1.0,5.82,US,1593153430
Cidreira,-30.18,-50.21,51.31,81.0,13.0,12.37,BR,1593153183
Carolina,18.38,-65.96,82.4,78.0,40.0,11.41,PR,1593153430
Tabuk,17.42,121.44,90.57,55.0,100.0,2.35,PH,1593153430
Yinchuan,38.47,106.27,90.28,12.0,96.0,2.06,CN,1593153430
Ginir,7.13,40.7,68.02,67.0,9.0,9.66,ET,1593153430
Mirny,62.54,113.96,80.6,32.0,40.0,2.24,RU,1593153404
Tahoua,14.89,5.27,86.0,66.0,6.0,13.87,NE,1593153430
Hong Kong,22.29,114.16,90.0,66.0,100.0,15.01,HK,1593153168
Otradnoye,59.78,30.82,77.0,53.0,27.0,6.71,RU,1593153430
Kyaikkami,16.08,97.57,83.43,73.0,100.0,1.81,MM,1593153430
Yellowknife,62.46,-114.35,57.0,76.0,40.0,5.82,CA,1593153199
Torquay,50.46,-3.51,62.01,96.0,1.0,8.23,GB,1593153430
Pasni,25.26,63.47,85.89,77.0,70.0,12.28,PK,1593153405
Desaguadero,-16.57,-69.04,36.75,84.0,3.0,5.64,PE,1593153430
Andilamena,-17.02,48.58,63.39,86.0,85.0,12.08,MG,1593153405
Pisco,-13.7,-76.22,59.0,87.0,90.0,2.24,PE,1593153219
Chara,56.91,118.26,70.41,43.0,100.0,6.76,RU,1593153431
Miles City,46.41,-105.84,62.6,67.0,1.0,3.36,US,1593153405
Trincomalee,8.57,81.23,88.93,63.0,100.0,14.03,LK,1593153431
Pacora,9.08,-79.28,80.6,88.0,40.0,2.24,PA,1593153431
Addis Ababa,9.03,38.75,68.88,44.0,0.0,0.98,ET,1593153277
Sistranda,63.73,8.83,68.0,64.0,93.0,16.04,NO,1593153214
Brookhaven,31.58,-90.44,69.01,67.0,100.0,4.47,US,1593153431
Grande Prairie,55.17,-118.8,55.4,66.0,75.0,6.93,CA,1593153405
Longyearbyen,78.22,15.64,50.0,71.0,75.0,6.93,SJ,1593153405
Faya,18.39,42.45,78.8,17.0,0.0,9.17,SA,1593153197
Mīzan Teferī,6.98,35.58,66.45,90.0,84.0,1.1,ET,1593153431
Richards Bay,-28.78,32.04,67.66,59.0,0.0,16.44,ZA,1593153180
Meulaboh,4.14,96.13,85.35,65.0,99.0,5.99,ID,1593153193
Tasiilaq,65.61,-37.64,39.2,93.0,94.0,4.7,GL,1593153206
Hamilton,39.18,-84.53,70.0,93.0,1.0,4.85,US,1593152933
Ixtapa,20.7,-105.2,78.01,97.0,100.0,1.01,MX,1593153218
Olafsvik,64.89,-23.71,49.05,82.0,100.0,6.91,IS,1593153214
Kiruna,67.86,20.23,55.4,54.0,51.0,2.24,SE,1593153188
Borba,-4.39,-59.59,74.91,78.0,35.0,1.3,BR,1593153431
Punta de Piedra,7.62,-71.49,71.51,92.0,100.0,2.33,VE,1593153432
Níjar,36.97,-2.21,71.6,78.0,0.0,3.36,ES,1593153168
Gizo Government Station,-8.1,156.84,83.34,78.0,12.0,15.32,SB,1593153432
Yenagoa,4.92,6.26,76.51,91.0,100.0,7.58,NG,1593153432
Dobele,56.62,23.28,73.4,64.0,0.0,3.36,LV,1593153432
Lesogorsk,56.05,99.51,81.12,45.0,100.0,3.65,RU,1593153432
Shima,24.45,117.81,93.2,67.0,40.0,13.42,CN,1593153432
Pau dos Ferros,-6.11,-38.21,68.61,84.0,93.0,4.54,BR,1593153432
Puerto Colombia,10.99,-74.95,82.4,78.0,100.0,9.17,CO,1593153432
Mbanza-Ngungu,-5.25,14.87,66.33,84.0,100.0,5.32,CD,1593153432
Gijang,35.24,129.21,82.4,58.0,20.0,5.82,KR,1593153220
Westport,41.14,-73.36,69.8,77.0,1.0,3.36,US,1593153143
Dalbandin,28.89,64.41,103.82,8.0,0.0,4.83,PK,1593153432
Salalah,17.02,54.09,89.6,70.0,20.0,8.05,OM,1593152998
Solnechnyy,50.72,136.63,68.85,55.0,59.0,5.28,RU,1593153219
Flagstaff,35.2,-111.65,72.0,18.0,1.0,4.7,US,1593153385
Lockport,41.59,-88.06,69.8,68.0,1.0,5.82,US,1593153432
Pemberton,50.32,-122.8,64.74,58.0,86.0,3.76,CA,1593153306
Paramirim,-13.44,-42.24,63.5,90.0,1.0,5.91,BR,1593153433
Mpanda,-6.37,31.04,74.26,47.0,89.0,7.27,TZ,1593153433
Brae,60.4,-1.35,60.8,82.0,80.0,16.11,GB,1593153433
Myingyan,21.47,95.38,87.8,79.0,75.0,11.41,MM,1593153407
Great Yarmouth,52.61,1.73,71.6,73.0,97.0,4.7,GB,1593153433
Saint-Pierre,-21.34,55.48,75.2,73.0,90.0,24.16,RE,1593153433
Jacmel,18.23,-72.53,82.4,74.0,1.0,6.93,HT,1593153433
Uarini,-2.99,-65.11,72.16,95.0,100.0,1.5,BR,1593153433
Bereket,39.24,55.52,94.86,21.0,0.0,18.63,TM,1593153433
Terney,45.05,136.61,55.31,92.0,100.0,8.21,RU,1593153433
Jamundí,3.26,-76.53,69.8,88.0,75.0,3.36,CO,1593153407
Melfi,41.0,15.65,73.99,73.0,5.0,3.36,IT,1593153433
Yakeshi,49.28,120.73,72.57,44.0,99.0,6.44,CN,1593153433
Hofn,64.25,-15.21,51.03,79.0,98.0,2.01,IS,1593153407
Petropavlovsk-Kamchatskiy,53.05,158.65,75.2,47.0,15.0,13.42,RU,1593153125
Grieskirchen,48.23,13.83,60.8,87.0,20.0,2.24,AT,1593153433
Giżycko,54.04,21.76,72.41,76.0,28.0,9.98,PL,1593153408
Isabela,6.71,121.97,82.4,78.0,40.0,5.82,PH,1593153408
Cleveland,41.5,-81.7,69.8,60.0,1.0,6.93,US,1593153203
Myitkyina,25.38,97.4,79.29,92.0,100.0,0.4,MM,1593153434
Beringovskiy,63.05,179.32,47.39,76.0,100.0,12.66,RU,1593153408
Kruisfontein,-34.0,24.73,58.73,85.0,4.0,8.39,ZA,1593153207
Yumen,40.28,97.2,89.58,11.0,100.0,4.38,CN,1593153207
Laguna,38.42,-121.42,73.99,56.0,1.0,9.17,US,1593153214
Mossamedes,-15.2,12.15,72.09,46.0,0.0,3.53,AO,1593153190
Lavrentiya,65.58,-171.0,44.22,71.0,100.0,14.36,RU,1593153434
Ponta do Sol,32.67,-17.1,68.0,60.0,40.0,8.05,PT,1593153204
Thinadhoo,0.53,72.93,84.94,72.0,60.0,9.78,MV,1593153434
Bareilly,28.35,79.42,99.86,38.0,0.0,8.7,IN,1593153434
Portland,45.52,-122.68,72.0,60.0,20.0,9.17,US,1593153342
Ust-Nera,64.57,143.2,79.7,24.0,74.0,5.79,RU,1593153434
Broken Hill,-31.95,141.43,60.8,42.0,40.0,8.05,AU,1593153434
Windsor Locks,41.93,-72.63,66.2,68.0,20.0,3.36,US,1593153434
Shāmgarh,24.18,75.63,94.87,46.0,74.0,11.36,IN,1593153434
Yulara,-25.24,130.99,66.2,26.0,0.0,8.05,AU,1593153213
Manyana,-23.4,21.72,54.36,45.0,0.0,6.31,BW,1593153435
Xuchang,34.02,113.82,89.6,59.0,100.0,4.47,CN,1593153435
Weiser,44.25,-116.97,75.2,41.0,1.0,8.05,US,1593153206
Paragould,36.06,-90.5,75.2,88.0,20.0,8.88,US,1593153435
Yuli,9.7,10.27,79.39,77.0,99.0,9.66,NG,1593153435
Morgan City,29.7,-91.21,77.0,100.0,90.0,8.05,US,1593153435
Marystown,47.17,-55.15,60.15,97.0,100.0,7.85,CA,1593153210
Bhadrak,21.06,86.51,99.48,44.0,78.0,14.43,IN,1593153435
Zhangye,38.93,100.45,89.56,12.0,100.0,10.18,CN,1593153435
Mbandaka,0.05,18.26,71.64,93.0,100.0,2.73,CD,1593153409
Kapoeta,4.77,33.59,82.83,51.0,0.0,17.27,SS,1593153435
Muroto-misakicho,33.28,134.15,82.4,83.0,75.0,10.29,JP,1593153182
Cervo,43.67,-7.41,62.01,83.0,100.0,1.01,ES,1593153435
Opuwo,-18.06,13.84,60.67,31.0,0.0,7.31,NA,1593153209
Husavik,66.04,-17.34,50.0,93.0,90.0,8.05,IS,1593153181
Karabulak,43.3,44.9,71.6,68.0,75.0,6.71,RU,1593153435
Cabo San Lucas,22.89,-109.91,78.01,87.0,0.0,8.1,MX,1593153002
Marfino,55.7,37.38,70.0,56.0,40.0,6.71,RU,1593153436
Sinjai,-5.12,120.25,82.56,73.0,12.0,5.59,ID,1593153340
Tual,-5.67,132.75,80.46,84.0,88.0,17.25,ID,1593153409
Verāval,20.9,70.37,89.11,65.0,74.0,10.45,IN,1593153436
San Jerónimo,-11.95,-75.28,46.62,69.0,53.0,3.51,PE,1593153182
Gandajika,-6.75,23.95,76.21,30.0,98.0,7.25,CD,1593153410
Obihiro,42.92,143.2,57.2,93.0,75.0,6.93,JP,1593153436
Priupskiy,53.91,37.74,64.71,85.0,98.0,7.07,RU,1593153436
Middle Island,40.88,-72.94,70.0,77.0,1.0,8.81,US,1593153248
Vao,-22.67,167.48,69.51,59.0,0.0,10.49,NC,1593153201
San Luis,-33.3,-66.34,38.95,65.0,50.0,5.97,AR,1593153267
Lucapa,-8.42,20.74,69.93,28.0,22.0,6.69,AO,1593153436
Tessalit,20.2,1.01,95.38,10.0,0.0,8.23,ML,1593153216
Benguela,-12.58,13.41,68.0,94.0,90.0,3.69,AO,1593153204
Talnakh,69.49,88.4,69.8,52.0,40.0,11.18,RU,1593153184
La Ronge,55.1,-105.28,62.6,72.0,90.0,2.24,CA,1593153436
Camacha,33.08,-16.33,66.2,72.0,75.0,14.99,PT,1593153436
Iqaluit,63.75,-68.51,37.4,86.0,20.0,3.36,CA,1593153184
San Rafael,-34.62,-68.33,42.17,58.0,92.0,5.86,AR,1593153198
Shimoda,34.67,138.95,80.01,94.0,75.0,17.22,JP,1593153200
Zhigansk,66.77,123.37,79.34,36.0,12.0,3.09,RU,1593153212
Lafia,8.48,8.52,77.11,86.0,99.0,2.55,NG,1593153437
Oktyabr'skoye,43.06,44.74,71.6,68.0,75.0,6.71,RU,1593153437
Redmond,47.67,-122.12,66.99,69.0,77.0,1.01,US,1593153425
Kefamenanu,-9.45,124.48,78.31,65.0,15.0,9.37,ID,1593153437
Altamira,-3.2,-52.21,71.01,97.0,89.0,1.03,BR,1593153410
Pacific Grove,36.62,-121.92,57.99,93.0,90.0,4.7,US,1593153202
Okha,53.57,142.95,42.35,96.0,100.0,13.38,RU,1593153437
Broome,42.25,-75.83,57.99,93.0,1.0,6.93,US,1593153201
Nabire,-3.37,135.48,83.1,78.0,100.0,1.97,ID,1593153437
Goderich,43.75,-81.72,66.99,81.0,0.0,8.52,CA,1593153437
Comodoro Rivadavia,-45.87,-67.5,37.0,81.0,100.0,19.44,AR,1593153215
Vestmannaeyjar,63.44,-20.27,51.3,82.0,100.0,9.48,IS,1593153437
Port Blair,11.67,92.75,85.95,68.0,100.0,11.36,IN,1593153197
Sobolevo,54.43,31.9,73.87,66.0,0.0,4.34,RU,1593153437
Nhulunbuy,-12.23,136.77,80.6,69.0,90.0,13.87,AU,1593153437
Phan Thiet,10.93,108.1,86.45,72.0,100.0,11.16,VN,1593153392
Shestakovo,56.49,103.96,85.05,32.0,42.0,5.1,RU,1593153438
Aden,12.78,45.04,87.33,70.0,0.0,12.91,YE,1593153291
Tiarei,-17.53,-149.33,78.8,74.0,20.0,13.87,PF,1593153411
Moose Factory,51.26,-80.61,42.8,100.0,90.0,6.93,CA,1593153220
Anáhuac,27.23,-100.15,78.85,77.0,100.0,15.7,MX,1593153438
Hirara,24.8,125.28,86.0,84.0,75.0,14.99,JP,1593153438
Gazimurskiy Zavod,51.55,118.33,75.88,37.0,76.0,7.2,RU,1593153438
Palivere,58.97,23.89,77.0,56.0,0.0,4.7,EE,1593153411
Biggar,55.62,-3.52,57.99,96.0,100.0,1.01,GB,1593153438
Catamayo,-3.98,-79.35,64.45,76.0,98.0,3.8,EC,1593153438
Dudinka,69.41,86.18,69.8,52.0,40.0,11.18,RU,1593153125
Innisfail,-17.53,146.03,68.41,75.0,5.0,8.59,AU,1593153438
Harlingen,26.19,-97.7,79.0,94.0,90.0,4.7,US,1593153278
Dolores,-36.31,-57.68,38.97,73.0,97.0,8.48,AR,1593153412
Kahului,20.89,-156.47,78.8,69.0,1.0,14.99,US,1593153030
Tongliao,43.61,122.27,75.07,49.0,100.0,11.16,CN,1593153412
Rome,43.21,-75.46,57.99,93.0,1.0,3.36,US,1593153438
Umm Kaddadah,13.6,26.69,86.58,44.0,100.0,14.54,SD,1593153438
Gushikawa,26.35,127.87,78.8,94.0,40.0,3.36,JP,1593153206
Kloulklubed,7.04,134.26,80.6,88.0,75.0,6.93,PW,1593153210
Biak,-0.91,122.88,80.02,78.0,87.0,7.4,ID,1593153439
Zamora,-4.07,-78.96,67.6,74.0,100.0,0.54,EC,1593153439
Jambi City,-1.6,103.62,92.23,46.0,98.0,3.49,ID,1593153412
Romodanovo,54.43,45.33,64.74,60.0,5.0,9.22,RU,1593153439
Vallenar,-28.57,-70.76,55.08,54.0,100.0,2.01,CL,1593153439
Laje,-10.18,-40.97,64.22,92.0,55.0,8.66,BR,1593153412
Vila Velha,-20.33,-40.29,64.99,93.0,3.0,2.24,BR,1593153086
Santa María del Oro,25.93,-105.37,69.13,61.0,56.0,1.86,MX,1593153412
Najrān,17.49,44.13,91.4,14.0,0.0,7.72,SA,1593153439
Manicoré,-5.81,-61.3,72.82,75.0,0.0,1.81,BR,1593153439
Quatre Cocos,-20.21,57.76,75.99,73.0,40.0,17.22,MU,1593153183
Lorengau,-2.02,147.27,84.85,73.0,3.0,12.21,PG,1593153212
Williams Lake,52.14,-122.14,60.8,55.0,75.0,6.93,CA,1593153412
Margate,51.38,1.39,69.01,83.0,100.0,1.99,GB,1593153220
Soe,-9.86,124.28,74.5,70.0,75.0,8.63,ID,1593153413
Henties Bay,-22.12,14.28,51.01,91.0,0.0,8.84,NA,1593153439
Bilma,18.69,12.92,94.14,11.0,0.0,4.61,NE,1593153440
Anapskaya,44.89,37.38,77.0,47.0,0.0,15.66,RU,1593153440
St. Pete Beach,27.73,-82.74,82.0,1.0,100.0,5.88,US,1593153210
Rabo de Peixe,37.8,-25.58,66.2,93.0,75.0,9.17,PT,1593153440
Slave Lake,55.28,-114.77,60.8,55.0,75.0,10.29,CA,1593153440
Kikwit,-5.04,18.82,82.4,36.0,86.0,2.89,CD,1593153413
Chabahar,25.29,60.64,89.33,65.0,48.0,7.94,IR,1593153440
Östersund,63.18,14.64,68.0,60.0,4.0,3.36,SE,1593153440
Antofagasta,-23.65,-70.4,59.0,77.0,90.0,3.36,CL,1593153147
Skibbereen,51.55,-9.27,57.2,87.0,75.0,5.82,IE,1593153209
Fenoarivo Atsinanana,-17.37,49.42,74.34,83.0,21.0,8.99,MG,1593153440
Babol,36.55,52.68,86.0,51.0,40.0,9.17,IR,1593153440
Serebryansk,49.69,83.29,82.4,39.0,20.0,4.47,KZ,1593153440
Inhambane,-23.86,35.38,62.6,93.0,20.0,3.36,MZ,1593153413
Batemans Bay,-35.72,150.18,57.0,65.0,2.0,1.39,AU,1593153229
Odienné,9.51,-7.57,71.53,93.0,0.0,1.77,CI,1593153440
Abaeté,-19.16,-45.45,61.68,76.0,60.0,0.47,BR,1593153413
Ketchikan,55.34,-131.65,50.0,100.0,90.0,9.17,US,1593153414
Isla Mujeres,21.23,-86.73,84.0,100.0,40.0,5.82,MX,1593153440
Port Keats,-14.25,129.55,87.96,29.0,76.0,1.54,AU,1593153440
Kiryat Gat,31.61,34.76,78.01,66.0,0.0,4.79,IL,1593153441
Belaya Gora,68.53,146.42,75.45,38.0,5.0,13.13,RU,1593153201
Robertsport,6.75,-11.37,77.72,86.0,100.0,9.98,LR,1593153441
Adrar,20.5,-10.07,90.75,18.0,0.0,7.18,MR,1593153213
Maragogi,-9.01,-35.22,74.41,87.0,74.0,10.8,BR,1593153212
Nuuk,64.18,-51.72,35.6,100.0,69.0,6.93,GL,1593153441
Banjarmasin,-3.32,114.59,87.8,62.0,20.0,6.93,ID,1593153441
Hambantota,6.12,81.12,77.0,100.0,75.0,8.05,LK,1593153178
Bocas del Toro,9.33,-82.25,78.98,79.0,88.0,8.25,PA,1593153414
Mujiayingzi,42.12,118.78,74.93,45.0,0.0,5.01,CN,1593153414
Beloha,-25.17,45.05,73.29,60.0,61.0,13.2,MG,1593153441
Kontagora,10.4,5.47,76.6,84.0,28.0,6.89,NG,1593153441
Baykit,61.67,96.37,81.72,26.0,0.0,7.67,RU,1593153441
Ponta Delgada,37.73,-25.67,66.2,93.0,75.0,9.17,PT,1593153212
La Tuque,47.43,-72.78,51.67,92.0,25.0,5.59,CA,1593153441
Abapó,-18.83,-63.47,53.1,72.0,89.0,3.04,BO,1593153441
Mandera,3.94,41.87,86.31,48.0,18.0,17.43,KE,1593153441
Sioux Lookout,50.1,-91.92,64.4,72.0,75.0,4.7,CA,1593153441
Shenjiamen,29.96,122.3,78.57,91.0,12.0,9.04,CN,1593153441
Kenai,60.55,-151.26,60.8,44.0,1.0,6.93,US,1593153441
Anadyr,64.75,177.48,50.0,93.0,75.0,11.18,RU,1593153213
Cardston,49.2,-113.3,62.6,87.0,1.0,12.75,CA,1593153442
Raja,8.46,25.68,74.21,82.0,63.0,4.88,SS,1593153442
Wanxian,30.8,108.39,96.89,47.0,79.0,8.46,CN,1593153442
KwaDukuza,-29.33,31.29,51.8,76.0,0.0,3.36,ZA,1593153442
Alofi,-19.06,-169.92,73.4,88.0,53.0,6.93,NU,1593153200
Verkhnevilyuysk,63.45,120.32,79.48,41.0,93.0,5.73,RU,1593153415
Nouakchott,18.09,-15.98,75.2,88.0,29.0,9.17,MR,1593153209
Makkah al Mukarramah,21.43,39.83,103.8,8.0,0.0,8.79,SA,1593153185
Sherpur,25.02,90.02,86.65,78.0,100.0,7.94,BD,1593153442
Venado Tuerto,-33.75,-61.97,41.07,66.0,9.0,5.88,AR,1593153442
Teya,60.38,92.63,82.26,24.0,67.0,4.88,RU,1593153209
Chokwé,-24.53,32.98,68.13,61.0,0.0,4.54,MZ,1593153442
Senno,59.53,33.92,77.49,49.0,0.0,8.34,RU,1593153442
Yaan,7.38,8.57,75.69,90.0,84.0,8.52,NG,1593153442
Honiara,-9.43,159.95,89.6,59.0,40.0,11.41,SB,1593153216
Guerrero Negro,27.98,-114.06,63.19,87.0,0.0,11.74,MX,1593153205
Fairbanks,64.84,-147.72,62.6,45.0,75.0,5.82,US,1593153217
Virginia Beach,36.85,-75.98,71.01,83.0,75.0,4.7,US,1593153256
Iki-Burul,45.82,44.65,69.8,28.0,0.0,8.95,RU,1593153442
Bilibino,68.05,166.44,45.25,58.0,86.0,12.75,RU,1593153203
Berlevåg,70.86,29.09,53.6,66.0,75.0,28.86,NO,1593153221
Denpasar,-8.65,115.22,86.0,74.0,40.0,13.87,ID,1593153383
Bandarbeyla,9.49,50.81,90.64,46.0,90.0,27.18,SO,1593153416
Oodweyne,9.41,45.06,80.6,44.0,21.0,22.91,SO,1593153416
Bathurst,-33.42,149.58,51.01,65.0,0.0,6.26,AU,1593153443
Beranang,2.87,101.87,84.2,79.0,20.0,3.36,MY,1593153416
North Bend,43.41,-124.22,57.99,100.0,90.0,18.34,US,1593153200
Korla,41.76,86.15,80.01,49.0,0.0,4.0,CN,1593153443
Murchison,-41.8,172.33,46.87,79.0,100.0,2.95,NZ,1593153443
Härnösand,62.63,17.94,78.8,47.0,0.0,5.82,SE,1593153443
Valparaíso,-33.04,-71.63,48.2,81.0,100.0,4.7,CL,1593152947
Bulgan,48.81,103.53,73.74,42.0,3.0,4.9,MN,1593153443
Morón,-34.65,-58.62,45.0,56.0,70.0,5.82,AR,1593153443
Uchaly,54.3,59.45,52.83,55.0,69.0,13.94,RU,1593153443
Benidorm,38.54,-0.13,75.99,54.0,0.0,5.99,ES,1593153416
Obo,5.4,26.49,74.19,86.0,45.0,4.45,CF,1593153443
Ţalkhā,31.05,31.38,85.86,40.0,0.0,8.63,EG,1593153443
Farafangana,-22.82,47.83,72.23,85.0,42.0,11.56,MG,1593153443
Kharp,66.8,65.81,51.35,70.0,100.0,17.0,RU,1593153183
High Rock,26.62,-78.28,82.02,81.0,73.0,10.67,BS,1593153444
Santiago del Estero,-27.8,-64.26,50.05,54.0,100.0,6.04,AR,1593153212
Umluj,25.02,37.27,88.36,48.0,0.0,13.02,SA,1593153444
High Level,58.52,-117.14,59.0,62.0,90.0,2.24,CA,1593153417
Cap-aux-Meules,47.38,-61.86,61.59,80.0,100.0,13.2,CA,1593153444
Arrondissement de Vire,48.92,-0.83,66.2,88.0,25.0,6.93,FR,1593153444
Pangai,-19.8,-174.35,77.0,78.0,20.0,10.29,TO,1593153417
Rocha,-34.48,-54.33,42.71,81.0,0.0,9.64,UY,1593153101
Sheridan,44.83,-106.92,57.2,82.0,1.0,4.85,US,1593153444
João Câmara,-5.54,-35.82,69.8,94.0,22.0,3.36,BR,1593153200
Dingle,11.0,122.67,82.69,78.0,100.0,5.08,PH,1593153211
Hastings,50.86,0.57,69.01,88.0,81.0,4.0,GB,1593153444
Strezhevoy,60.73,77.59,60.8,63.0,40.0,8.95,RU,1593153417
San Cristobal,7.77,-72.22,65.57,91.0,100.0,3.58,VE,1593153444
Tomatlán,19.93,-105.25,77.54,90.0,100.0,1.12,MX,1593153417
College,64.86,-147.8,62.6,51.0,75.0,5.82,US,1593153178
Salinas,36.68,-121.66,60.8,82.0,90.0,8.05,US,1593152962
Norsup,-16.07,167.38,78.8,94.0,75.0,11.97,VU,1593153417
Yerköy,39.64,34.47,72.64,47.0,0.0,10.85,TR,1593153444
Arlit,18.74,7.39,95.92,10.0,1.0,2.53,NE,1593153444
Mairang,25.57,91.63,82.4,88.0,90.0,2.24,IN,1593153189
Chekhov,55.14,37.47,69.01,63.0,40.0,8.95,RU,1593153445
Roverud,60.25,12.05,71.01,50.0,0.0,1.99,NO,1593153445
Rawson,-43.3,-65.1,39.0,81.0,8.0,20.89,AR,1593153208
Kortkeros,61.81,51.58,51.8,66.0,75.0,6.71,RU,1593153445
